     2.10           OBSERVATION DATA    G: GPS              RINEX VERSION / TYPE
RTKCONV 2.4.3 b34                       20220108 034825 UTC PGM / RUN BY / DATE 
format: RINEX                                               COMMENT             
                                                            MARKER NAME         
                                                            MARKER NUMBER       
                                                            OBSERVER / AGENCY   
                                                            REC # / TYPE / VERS 
                                                            ANT # / TYPE        
        0.0000        0.0000        0.0000                  APPROX POSITION XYZ 
        0.0000        0.0000        0.0000                  ANTENNA: DELTA H/E/N
     1     1                                                WAVELENGTH FACT L1/2
     5    C1    L1    P2    L2    C2                        # / TYPES OF OBSERV 
  2022    01    08    01    00   00.0000000     GPS         TIME OF FIRST OBS   
  2022    01    08    01    59   59.0000000     GPS         TIME OF LAST OBS    
                                                            END OF HEADER       
 22 01 08 01 00 00.0000000  0 12G01G06G07G10G13G14G15G17G19G21G24G30
  22067015.773   115962935.3881   22067024.277    90360803.5881   22067023.605  
  25437914.688   133677143.8531                  104164036.5731   25437921.785  
  25054693.852   131663380.2891   25054700.613   102594837.6601   25054700.148  
  25798338.234   135571296.3691   25798345.043   105639916.2271   25798345.043  
  22621119.984   118874979.9321   22621125.684    92629769.3771                 
  20619853.789   108357963.7381   20619859.320    84434938.8741   20619859.055  
  23269089.797   122279802.2661   23269094.836    95283091.3491   23269095.172  
  20461181.148   107524272.9431   20461186.016    83785198.4231   20461185.871  
  21352198.938   112206601.3051   21352202.871    87433763.8191                 
  24231369.375   127336653.9201   24231374.313    99223453.5071                 
  23267102.383   122269380.9791   23267110.551    95274968.0061   23267110.813  
  22966301.297   120688624.4711   22966309.012    94043254.6041   22966308.984  
 22 01 08 01 00 01.0000000  0 12G01G06G07G10G13G14G15G17G19G21G24G30
  22067062.305   115963180.307    22067071.004    90360994.434    22067070.172  
  25437191.797   133673347.892                   104161078.680    25437199.434  
  25055413.570   131667160.061    25055419.926   102597782.938    25055419.805  
  25798516.836   135572231.795    25798522.961   105640645.121    25798523.063  
  22621640.297   118877714.199    22621646.461    92631899.980                  
  20620100.641   108359261.650    20620106.219    84435950.233    20620105.961  
  23269448.672   122281689.960    23269453.820    95284562.283    23269454.188  
  20461065.094   107523665.051    20461070.625    83784724.741    20461070.453  
  21351678.586   112203866.440    21351682.207    87431632.753                  
  24231794.008   127338886.413    24231799.012    99225193.097                  
  23266493.594   122266185.544    23266502.773    95272478.062    23266502.793  
  22966945.617   120692011.921    22966953.703    94045894.176    22966953.582  
 22 01 08 01 00 02.0000000  0 12G01G06G07G10G13G14G15G17G19G21G24G30
  22067109.320   115963425.927    22067118.059    90361185.829    22067117.125  
  25436469.125   133669551.845                   104158120.728    25436477.426  
  25056133.195   131670939.953    25056139.043   102600728.309    25056138.680  
  25798694.758   135573167.754    25798701.250   105641374.436    25798701.063  
  22622160.797   118880448.885    22622166.508    92634030.902                  
  20620347.500   108360559.903    20620353.402    84436961.855    20620353.082  
  23269808.141   122283578.162    23269813.676    95286033.610    23269814.219  
  20460949.836   107523057.692    20460954.758    83784251.471    20460954.707  
  21351158.273   112201131.992    21351161.465    87429502.018                  
  24232218.688   127341119.372    24232223.898    99226933.047                  
  23265885.930   122262990.381    23265894.215    95269988.320    23265894.289  
  22967590.508   120695399.615    22967597.844    94048533.938    22967598.066  
 22 01 08 01 00 03.0000000  0 12G01G06G07G10G13G14G15G17G19G21G24G30
  22067155.445   115963672.336    22067164.555    90361377.837    22067163.559  
  25435746.242   133665755.714                   104155162.705    25435755.270  
  25056852.406   131674719.918    25056858.793   102603673.742    25056858.383  
  25798872.633   135574104.284    25798879.746   105642104.206    25798879.336  
  22622681.328   118883184.015    22622687.121    92636162.173                  
  20620595.000   108361858.594    20620600.320    84437973.827    20620600.000  
  23270167.273   122285466.899    23270172.738    95287505.355    23270173.000  
  20460834.211   107522450.897    20460839.168    83783778.647    20460838.840  
  21350637.867   112198398.012    21350641.590    87427371.641                  
  24232643.898   127343352.689    24232648.781    99228673.295                  
  23265277.750   122259795.563    23265286.543    95267498.852    23265286.863  
  22968235.688   120698787.631    22968243.176    94051173.949    22968243.320  
 22 01 08 01 00 04.0000000  0 12G01G06G07G10G13G14G15G17G19G21G24G30
  22067202.773   115963919.495    22067211.891    90361570.429    22067211.109  
  25435024.422   133661959.510                   104152204.633    25435033.008  
  25057572.164   131678499.920    25057578.063   102606619.205    25057577.879  
  25799050.195   135575041.351    25799057.980   105642834.386    25799057.211  
  22623202.234   118885919.515    22623207.875    92638293.728                  
  20620841.766   108363157.626    20620847.617    84438986.058    20620847.566  
  23270527.055   122287356.120    23270532.832    95288977.470    23270533.137  
  20460718.734   107521844.631    20460723.637    83783306.230    20460723.387  
  21350117.383   112195664.469    21350121.609    87425241.611                  
  24233069.523   127345586.495    24233073.652    99230413.932                  
  23264669.375   122256601.014    23264678.633    95265009.589    23264678.719  
  22968879.906   120702175.852    22968887.773    94053814.118    22968887.879  
 22 01 08 01 00 05.0000000  0 12G01G06G07G10G13G14G15G17G19G21G24G30
  22067249.992   115964167.449    22067258.895    90361763.637    22067258.070  
  25434302.633   133658163.220                   104149246.493    25434309.973  
  25058290.859   131682280.032    25058297.387   102609564.753    25058297.258  
  25799228.969   135575978.997    25799236.703   105643565.008    25799236.180  
  22623722.617   118888655.510    22623728.125    92640425.677                  
  20621089.172   108364457.079    20621094.941    84439998.616    20621094.848  
  23270885.961   122289245.936    23270892.219    95290450.052    23270892.172  
  20460603.664   107521238.956    20460609.195    83782834.276    20460609.027  
  21349597.484   112192931.414    21349601.625    87423111.960                  
  24233494.930   127347820.731    24233498.980    99232154.902                  
  23264061.805   122253406.809    23264070.633    95262520.598    23264070.730  
  22969525.148   120705564.452    22969532.949    94056454.586    22969532.754  
 22 01 08 01 00 06.0000000  0 12G01G06G07G10G13G14G15G17G19G21G24G30
  22067297.922   115964416.143    22067306.195    90361957.427    22067305.664  
  25433580.055   133654366.814                   104146288.264    25433587.848  
  25059009.938   131686060.205    25059016.082   102612510.350    25059015.809  
  25799407.461   135576917.198    25799415.484   105644296.069    25799414.656  
  22624243.281   118891391.899    22624248.750    92642557.936                  
  20621336.516   108365756.916    20621342.453    84441011.481    20621342.320  
  23271245.977   122291136.226    23271251.504    95291923.006    23271251.352  
  20460488.359   107520633.791    20460493.898    83782362.717    20460493.738  
  21349077.922   112190198.788    21349081.242    87420982.640                  
  24233919.984   127350055.403    24233924.340    99233896.194                  
  23263454.164   122250212.892    23263463.055    95260031.843    23263463.051  
  22970169.992   120708953.253    22970177.602    94059095.210    22970177.430  
 22 01 08 01 00 07.0000000  0 12G01G06G07G10G13G14G15G17G19G21G24G30
  22067344.664   115964665.649    22067353.594    90362151.847    22067352.746  
  25432857.578   133650570.397                   104143330.024    25432865.863  
  25059729.961   131689840.536    25059735.719   102615456.054    25059734.887  
  25799586.992   135577855.975    25799594.094   105645027.586    25799593.426  
  22624764.250   118894128.767    22624769.637    92644690.563                  
  20621583.617   108367057.161    20621589.980    84442024.655    20621589.691  
  23271605.570   122293027.113    23271611.852    95293396.423    23271611.676  
  20460373.391   107520029.251    20460378.648    83781891.654    20460378.766  
  21348557.719   112187466.674    21348561.434    87418853.719                  
  24234345.703   127352290.533    24234349.332    99235637.855                  
  23262846.578   122247019.341    23262855.457    95257543.362    23262855.262  
  22970815.063   120712342.386    22970822.406    94061736.090    22970822.508  
 22 01 08 01 00 08.0000000  0 12G01G06G07G10G13G14G15G17G19G21G24G30
  22067392.461   115964915.857    22067401.438    90362346.817    22067400.594  
  25432134.891   133646773.817                   104140371.663    25432142.961  
  25060449.492   131693620.875    25060455.289   102618401.766    25060454.324  
  25799765.211   135578795.262    25799772.313   105645759.508    25799771.680  
  22625285.164   118896865.989    22625290.398    92646823.454                  
  20621831.461   108368357.763    20621837.086    84443038.112    20621836.773  
  23271965.648   122294918.441    23271971.398    95294870.184    23271971.555  
  20460258.336   107519425.188    20460263.695    83781420.956    20460263.496  
  21348037.711   112184734.946    21348041.645    87416725.108                  
  24234770.836   127354526.050    24234775.184    99237379.823                  
  23262239.195   122243826.010    23262247.699    95255055.057    23262247.523  
  22971460.070   120715731.766    22971467.551    94064377.163    22971467.594  
 22 01 08 01 00 09.0000000  0 12G01G06G07G10G13G14G15G17G19G21G24G30
  22067440.266   115965166.838    22067449.277    90362542.384    22067448.684  
  25431412.180   133642977.160                   104137413.238    25431420.379  
  25061168.641   131697401.307    25061174.934   102621347.550    25061174.035  
  25799943.742   135579735.147    25799951.461   105646491.890    25799950.859  
  22625806.211   118899603.705    22625811.402    92648956.730                  
  20622079.125   108369658.769    20622084.664    84444051.886    20622084.398  
  23272325.555   122296810.348    23272331.625    95296344.396    23272331.625  
  20460144.125   107518821.699    20460148.926    83780950.702    20460148.879  
  21347518.266   112182003.699    21347522.133    87414596.861                  
  24235196.547   127356762.020    24235200.895    99239122.139                  
  23261631.336   122240633.088    23261640.223    95252567.063    23261639.836  
  22972104.641   120719121.461    22972112.281    94067018.484    22972112.332  
 22 01 08 01 00 10.0000000  0 12G01G06G07G10G13G14G15G17G19G21G24G30
  22067487.953   115965418.583    22067496.535    90362738.547    22067495.793  
  25430689.508   133639180.444                   104134454.770    25430697.508  
  25061887.578   131701181.815    25061894.023   102624293.403    25061893.383  
  25800123.094   135580675.579    25800130.859   105647224.693    25800130.316  
  22626327.328   118902341.809    22626332.336    92651090.317                  
  20622326.758   108370960.177    20622332.223    84445065.968    20622332.129  
  23272685.898   122298702.782    23272691.828    95297819.017    23272691.848  
  20460029.039   107518218.777    20460034.223    83780480.890    20460034.176  
  21346998.609   112179272.919    21347002.352    87412468.981                  
  24235621.742   127358998.422    24235626.332    99240864.794                  
  23261023.664   122237440.412    23261032.527    95250079.262    23261032.402  
  22972749.391   120722511.413    22972757.348    94069660.005    22972757.543  
 22 01 08 01 00 11.0000000  0 12G01G06G07G10G13G14G15G17G19G21G24G30
  22067536.445   115965671.103    22067545.172    90362935.320    22067544.449  
  25429966.945   133635383.563                   104131496.175    25429975.039  
  25062607.883   131704962.339    25062613.531   102627239.267    25062613.008  
  25800301.508   135581616.532    25800310.188   105647957.901    25800310.031  
  22626847.766   118905080.334    22626853.418    92653224.233                  
  20622574.484   108372261.933    20622580.316    84446080.324    20622580.262  
  23273046.273   122300595.701    23273051.930    95299294.021    23273051.668  
  20459914.438   107517616.352    20459919.266    83780011.471    20459919.363  
  21346479.453   112176542.546    21346482.484    87410341.426                  
  24236047.234   127361235.235    24236051.555    99242607.774                  
  23260416.305   122234248.039    23260424.938    95247591.697    23260424.355  
  22973394.773   120725901.623    22973402.473    94072301.724    22973402.734  
 22 01 08 01 00 12.0000000  0 12G01G06G07G10G13G14G15G17G19G21G24G30
  22067584.328   115965924.359    22067592.820    90363132.663    22067592.410  
  25429244.711   133631586.635                   104128537.535    25429252.164  
  25063326.836   131708743.030    25063332.883   102630185.255    25063332.496  
  25800480.539   135582558.104    25800489.016   105648691.588    25800488.875  
  22627369.039   118907819.315    22627374.625    92655358.508                  
  20622822.219   108373564.105    20622828.227    84447095.002    20622827.840  
  23273406.086   122302489.170    23273412.773    95300769.451    23273412.652  
  20459799.891   107517014.528    20459805.066    83779542.514    20459804.973  
  21345959.773   112173812.673    21345963.164    87408214.247                  
  24236473.328   127363472.506    24236477.648    99244351.095                  
  23259809.078   122231055.996    23259817.805    95245104.391    23259817.277  
  22974039.992   120729292.139    22974047.707    94074943.690    22974048.039  
 22 01 08 01 00 13.0000000  0 12G01G06G07G10G13G14G15G17G19G21G24G30
  22067633.305   115966178.418    22067641.422    90363330.632    22067640.984  
  25428522.055   133627789.699                   104125578.881    25428529.551  
  25064046.484   131712523.752    25064052.434   102633131.273    25064051.953  
  25800659.906   135583500.197    25800668.934   105649425.680    25800669.020  
  22627890.930   118910558.701    22627895.730    92657493.094                  
  20623070.359   108374866.668    20623076.051    84448109.993    20623075.492  
  23273766.742   122304383.177    23273772.789    95302245.299    23273772.781  
  20459685.477   107516413.259    20459690.453    83779073.999    20459690.484  
  21345440.047   112171083.234    21345443.906    87406087.409                  
  24236898.930   127365710.228    24236903.813    99246094.771                  
  23259201.664   122227864.290    23259210.547    95242617.352    23259209.656  
  22974685.336   120732682.955    22974693.234    94077585.880    22974693.590  
 22 01 08 01 00 14.0000000  0 12G01G06G07G10G13G14G15G17G19G21G24G30
  22067681.078   115966433.199    22067689.758    90363529.163    22067689.676  
  25427799.789   133623992.593                   104122620.097    25427807.020  
  25064765.773   131716304.588    25064771.957   102636077.385    25064771.168  
  25800840.016   135584442.806    25800848.258   105650160.182    25800848.250  
  22628412.406   118913298.529    22628417.500    92659628.033                  
  20623318.047   108376169.612    20623323.926    84449125.271    20623323.672  
  23274127.047   122306277.698    23274133.813    95303721.549    23274133.934  
  20459571.359   107515812.529    20459576.203    83778605.897    20459576.035  
  21344921.016   112168354.267    21344924.934    87403960.942                  
  24237325.148   127367948.345    24237329.559    99247838.776                  
  23258594.461   122224672.867    23258603.266    95240130.527    23258602.090  
  22975329.992   120736074.011    22975338.270    94080228.263    22975338.707  
 22 01 08 01 00 15.0000000  0 12G01G06G07G10G13G14G15G17G19G21G24G30
  22067730.375   115966688.780    22067738.535    90363728.317    22067737.977  
  25427076.391   133620195.399                   104119661.244    25427084.680  
  25065485.258   131720085.451    25065491.195   102639023.510    25065490.176  
  25801019.555   135585386.027    25801027.820   105650895.161    25801027.906  
  22628933.656   118916038.810    22628939.188    92661763.308                  
  20623566.664   108377472.959    20623571.945    84450140.865    20623571.754  
  23274487.836   122308172.748    23274493.754    95305198.214    23274493.867  
  20459457.344   107515212.359    20459462.199    83778138.229    20459462.223  
  21344401.789   112165625.740    21344405.605    87401834.820                  
  24237750.633   127370186.967    24237755.707    99249583.159                  
  23257987.000   122221481.757    23257996.012    95237643.944    23257995.289  
  22975975.969   120739465.376    22975983.492    94082870.887    22975983.930  
 22 01 08 01 00 16.0000000  0 12G01G06G07G10G13G14G15G17G19G21G24G30
  22067778.938   115966945.074    22067787.152    90363928.026    22067786.574  
  25426353.445   133616398.110                   104116702.320    25426361.621  
  25066204.266   131723866.413    25066210.652   102641969.717    25066209.742  
  25801198.813   135586329.798    25801207.285   105651630.571    25801207.105  
  22629455.047   118918779.467    22629460.523    92663898.886                  
  20623814.555   108378776.658    20623819.734    84451156.736    20623819.445  
  23274848.359   122310068.302    23274854.770    95306675.272    23274854.859  
  20459343.016   107514612.717    20459347.801    83777670.981    20459347.574  
  21343882.375   112162897.668    21343886.309    87399709.047                  
  24238177.750   127372425.963    24238181.238    99251327.822                  
  23257379.789   122218290.954    23257388.746    95235157.606    23257388.152  
  22976620.938   120742856.997    22976629.094    94085513.712    22976629.250  
 22 01 08 01 00 17.0000000  0 12G01G06G07G10G13G14G15G17G19G21G24G30
  22067828.008   115967202.187    22067836.680    90364128.373    22067835.996  
  25425631.109   133612600.792                   104113743.374    25425638.934  
  25066924.063   131727647.459    25066929.867   102644915.986    25066928.996  
  25801378.328   135587274.142    25801386.773   105652366.433    25801386.504  
  22629976.367   118921520.628    22629981.918    92666034.850                  
  20624062.617   108380080.798    20624068.293    84452172.946    20624067.980  
  23275208.641   122311964.396    23275215.664    95308152.750    23275215.645  
  20459228.945   107514013.667    20459233.852    83777204.185    20459233.477  
  21343363.109   112160170.068    21343367.043    87397583.647                  
  24238602.438   127374665.439    24238607.770    99253072.847                  
  23256772.289   122215100.458    23256781.387    95232671.505    23256780.855  
  22977266.430   120746248.902    22977274.547    94088156.752    22977274.582  
 22 01 08 01 00 18.0000000  0 12G01G06G07G10G13G14G15G17G19G21G24G30
  22067876.477   115967460.040    22067885.035    90364329.294    22067884.551  
  25424908.219   133608803.312                   104110784.305    25424916.508  
  25067642.914   131731428.572    25067649.758   102647862.309    25067648.586  
  25801558.734   135588219.009    25801566.699   105653102.701    25801566.352  
  22630498.484   118924262.138    22630504.184    92668171.090                  
  20624310.844   108381385.288    20624316.410    84453189.439    20624316.348  
  23275569.797   122313861.020    23275576.559    95309630.639    23275576.168  
  20459114.945   107513415.138    20459119.793    83776737.802    20459119.813  
  21342844.375   112157442.899    21342848.328    87395458.586                  
  24239028.828   127376905.283    24239033.918    99254818.217                  
  23256165.727   122211910.293    23256174.523    95230185.666    23256174.074  
  22977912.578   120749641.110    22977919.973    94090800.030    22977919.852  
 22 01 08 01 00 19.0000000  0 12G01G06G07G10G13G14G15G17G19G21G24G30
  22067926.203   115967718.641    22067934.469    90364530.804    22067933.879  
  25424185.625   133605005.803                   104107825.213    25424193.934  
  25068363.117   131735209.745    25068368.973   102650808.677    25068368.426  
  25801738.781   135589164.445    25801746.648   105653839.410    25801746.227  
  22631020.234   118927004.094    22631025.816    92670307.672                  
  20624558.945   108382690.159    20624564.410    84454206.220    20624564.180  
  23275930.930   122315758.145    23275937.066    95311108.917    23275936.785  
  20459001.195   107512817.146    20459006.016    83776271.829    20459006.063  
  21342325.648   112154716.194    21342329.199    87393333.882                  
  24239455.266   127379145.624    24239460.105    99256563.941                  
  23255558.383   122208720.427    23255567.355    95227700.060    23255567.004  
  22978557.289   120753033.563    22978565.863    94093443.502    22978565.777  
 22 01 08 01 00 20.0000000  0 12G01G06G07G10G13G14G15G17G19G21G24G30
  22067975.703   115967978.005    22067983.676    90364732.907    22067983.434  
  25423462.563   133601208.216                   104104866.052    25423471.250  
  25069083.367   131738991.013    25069088.859   102653755.110    25069088.270  
  25801918.141   135590110.429    25801926.801   105654576.543    25801926.004  
  22631542.000   118929746.496    22631547.789    92672444.616                  
  20624807.516   108383995.446    20624813.688    84455223.323    20624813.188  
  23276292.344   122317655.836    23276298.383    95312587.637    23276298.395  
  20458887.820   107512219.756    20458892.750    83775806.334    20458892.578  
  21341806.641   112151989.963    21341810.176    87391209.545                  
  24239881.570   127381386.431    24239886.777    99258310.014                  
  23254951.461   122205530.877    23254960.215    95225214.699    23254960.051  
  22979202.992   120756426.298    22979211.094    94096087.185    22979210.953  
 22 01 08 01 00 21.0000000  0 12G01G06G07G10G13G14G15G17G19G21G24G30
  22068024.805   115968238.136    22068033.461    90364935.608    22068032.934  
  25422739.813   133597410.575                   104101906.844    25422748.918  
  25069801.969   131742772.331    25069808.141   102656701.595    25069807.473  
  25802098.953   135591056.955    25802107.063   105655314.106    25802106.223  
  22632063.797   118932489.283    22632069.629    92674581.852                  
  20625056.000   108385301.103    20625061.805    84456240.713    20625061.387  
  23276653.438   122319553.975    23276659.441    95314066.703    23276659.863  
  20458774.039   107511622.871    20458778.813    83775341.231    20458778.734  
  21341287.813   112149264.164    21341291.746    87389085.546                  
  24240308.586   127383627.543    24240312.707    99260056.323                  
  23254344.797   122202341.633    23254353.523    95222729.576    23254353.457  
  22979849.063   120759819.361    22979856.867    94098731.131    22979856.816  
 22 01 08 01 00 22.0000000  0 12G01G06G07G10G13G14G15G17G19G21G24G30
  22068074.047   115968499.010    22068082.848    90365138.884    22068082.254  
  25422017.352   133593612.743                   104098947.487    25422026.043  
  25070521.641   131746553.695    25070527.816   102659648.116    25070527.469  
  25802277.664   135592004.084    25802287.676   105656052.135    25802286.574  
  22632586.094   118935232.540    22632591.457    92676719.454                  
  20625304.297   108386607.146    20625309.930    84457258.414    20625309.758  
  23277014.305   122321452.731    23277020.672    95315546.250    23277020.879  
  20458660.531   107511026.559    20458665.215    83774876.572    20458664.902  
  21340768.836   112146538.832    21340772.992    87386961.917                  
  24240735.328   127385869.197    24240740.016    99261803.040                  
  23253738.336   122199152.697    23253746.781    95220244.688    23253746.590  
  22980494.711   120763212.637    22980502.664    94101375.240    22980502.559  
 22 01 08 01 00 23.0000000  0 12G01G06G07G10G13G14G15G17G19G21G24G30
  22068124.422   115968760.693    22068132.254    90365342.794    22068131.660  
  25421295.313   133589814.870                   104095988.099    25421303.395  
  25071240.438   131750335.244    25071247.406   102662594.772    25071246.930  
  25802458.336   135592951.743    25802468.105   105656790.573    25802467.137  
  22633107.969   118937976.234    22633113.754    92678857.394                  
  20625552.883   108387913.616    20625558.863    84458276.439    20625558.516  
  23277376.383   122323351.985    23277382.414    95317026.187    23277382.734  
  20458547.008   107510430.836    20458552.055    83774412.371    20458551.867  
  21340251.008   112143813.985    21340255.086    87384838.659                  
  24241162.156   127388111.273    24241166.418    99263550.134                  
  23253130.703   122195964.106    23253139.785    95217760.070    23253139.426  
  22981140.398   120766606.276    22981148.523    94104019.639    22981148.645  
 22 01 08 01 00 24.0000000  0 12G01G06G07G10G13G14G15G17G19G21G24G30
  22068174.641   115969023.049    22068182.797    90365547.231    22068182.270  
  25420571.570   133586016.910                   104093028.644    25420581.207  
  25071960.852   131754116.718    25071966.891   102665541.381    25071966.805  
  25802638.578   135593899.963    25802648.496   105657529.447    25802647.223  
  22633630.070   118940720.306    22633635.516    92680995.629                  
  20625801.211   108389220.398    20625807.398    84459294.713    20625807.152  
  23277737.555   122325251.687    23277744.133    95318506.470    23277744.297  
  20458433.813   107509835.584    20458438.813    83773948.541    20458438.727  
  21339732.039   112141089.518    21339735.969    87382715.693                  
  24241588.164   127390353.731    24241593.199    99265297.525                  
  23252524.758   122192775.745    23252533.102    95215275.627    23252532.941  
  22981786.203   120770000.101    22981794.242    94106664.174    22981794.141  
 22 01 08 01 00 25.0000000  0 12G01G06G07G10G13G14G15G17G19G21G24G30
  22068223.820   115969286.281    22068232.754    90365752.350    22068232.191  
  25419848.820   133582218.907                   104090069.162    25419858.004  
  25072681.172   131757898.404    25072686.359   102668488.149    25072686.363  
  25802819.258   135594848.772    25802829.176   105658268.778    25802827.762  
  22634152.461   118943464.870    22634157.871    92683134.256                  
  20626050.438   108390527.674    20626056.277    84460313.372    20626056.133  
  23278099.219   122327152.036    23278105.484    95319987.261    23278105.859  
  20458320.508   107509240.972    20458325.340    83773485.204    20458325.113  
  21339214.586   112138365.592    21339218.457    87380593.157                  
  24242014.664   127392596.673    24242019.664    99267045.256                  
  23251917.797   122189587.828    23251926.324    95212791.537    23251926.379  
  22982432.281   120773394.318    22982439.977    94109309.015    22982440.117  
 22 01 08 01 00 26.0000000  0 12G01G06G07G10G13G14G15G17G19G21G24G30
  22068274.422   115969550.201    22068283.090    90365958.001    22068282.258  
  25419126.117   133578420.771                   104087109.581    25419135.855  
  25073399.977   131761680.112    25073406.320   102671434.940    25073406.164  
  25802999.039   135595798.052    25803009.832   105659008.466    25803008.148  
  22634675.406   118946209.819    22634680.637    92685273.186                  
  20626299.125   108391835.282    20626304.738    84461332.286    20626304.531  
  23278460.586   122329052.833    23278467.559    95321468.401    23278467.910  
  20458207.539   107508646.872    20458212.438    83773022.272    20458212.301  
  21338695.289   112135642.048    21338699.680    87378470.913                  
  24242442.000   127394840.004    24242446.480    99268793.331                  
  23251311.148   122186400.107    23251320.023    95210307.601    23251320.195  
  22983078.453   120776788.718    22983086.152    94111954.001    22983086.379  
 22 01 08 01 00 27.0000000  0 12G01G06G07G10G13G14G15G17G19G21G24G30
  22068324.695   115969814.945    22068333.332    90366164.293    22068332.605  
  25418403.477   133574622.555                   104084149.938    25418413.141  
  25074119.586   131765461.919    25074125.719   102674381.800    25074125.438  
  25803180.484   135596748.018    25803190.461   105659748.694    25803189.211  
  22635197.313   118948955.211    22635202.770    92687412.460                  
  20626547.984   108393143.290    20626553.879    84462351.512    20626553.414  
  23278822.703   122330954.197    23278829.148    95322949.981    23278829.305  
  20458094.461   107508053.336    20458099.449    83772559.773    20458099.297  
  21338178.016   112132919.015    21338181.727    87376349.072                  
  24242869.461   127397083.865    24242873.785    99270541.794                  
  23250704.734   122183212.744    23250712.965    95207823.946    23250713.434  
  22983724.727   120780183.447    22983732.188    94114599.243    22983732.352  
 22 01 08 01 00 28.0000000  0 12G01G06G07G10G13G14G15G17G19G21G24G30
  22068375.352   115970080.371    22068383.988    90366371.120    22068383.410  
  25417681.867   133570824.191                   104081190.181    25417689.770  
  25074839.570   131769243.751    25074845.508   102677328.674    25074845.262  
  25803361.555   135597698.408    25803371.520   105660489.253    25803370.531  
  22635719.914   118951700.974    22635725.535    92689552.008                  
  20626797.523   108394451.622    20626802.797    84463370.993    20626802.379  
  23279184.547   122332856.037    23279190.836    95324431.923    23279191.063  
  20457982.031   107507460.303    20457986.742    83772097.668    20457986.406  
  21337659.711   112130196.395    21337663.551    87374227.550                  
  24243296.422   127399328.072    24243300.520    99272290.500                  
  23250098.297   122180025.647    23250106.332    95205340.496    23250106.867  
  22984370.477   120783578.387    22984377.969    94117244.654    22984378.102  
 22 01 08 01 00 29.0000000  0 12G01G06G07G10G13G14G15G17G19G21G24G30
  22068425.813   115970346.618    22068434.688    90366578.582    22068433.973  
  25416958.211   133567025.837                   104078230.428    25416967.383  
  25075558.688   131773025.685    25075564.949   102680275.630    25075564.668  
  25803542.422   135598649.391    25803552.059   105661230.277    25803550.977  
  22636242.102   118954447.220    22636247.727    92691691.928                  
  20627046.594   108395760.429    20627051.820    84464390.844    20627051.902  
  23279546.211   122334758.437    23279553.250    95325914.315    23279553.203  
  20457869.180   107506867.880    20457874.102    83771636.040    20457873.902  
  21337141.727   112127474.253    21337145.418    87372106.402                  
  24243723.672   127401572.741    24243727.613    99274039.597                  
  23249491.586   122176838.926    23249500.023    95202857.337    23249500.270  
  22985016.875   120786973.670    22985024.211    94119890.328    22985024.570  
 22 01 08 01 00 30.0000000  0 12G01G06G07G10G13G14G15G17G19G21G24G30
  22068476.508   115970613.570    22068485.656    90366786.598    22068485.094  
  25416235.352   133563227.304                   104075270.530    25416244.098  
  25076278.773   131776807.677    25076284.656   102683222.633    25076284.203  
  25803723.125   135599600.921    25803733.039   105661971.729    25803731.793  
  22636765.086   118957193.830    22636770.367    92693832.138                  
  20627295.367   108397069.534    20627301.133    84465410.931    20627300.785  
  23279908.484   122336661.312    23279914.602    95327397.079    23279915.105  
  20457756.266   107506275.954    20457761.398    83771174.802    20457761.434  
  21336624.023   112124752.519    21336627.559    87369985.569                  
  24244150.813   127403817.832    24244155.137    99275788.992                  
  23248884.953   122173652.462    23248893.797    95200374.376    23248894.102  
  22985663.336   120790369.187    22985670.594    94122536.180    22985670.695  
 22 01 08 01 00 31.0000000  0 12G01G06G07G10G13G14G15G17G19G21G24G30
  22068528.016   115970881.332    22068536.293    90366995.241    22068535.504  
  25415512.391   133559428.710                   104072310.596    25415521.402  
  25076998.633   131780589.734    25077004.363   102686169.697    25077004.238  
  25803904.102   135600552.996    25803914.000   105662713.615    25803912.684  
  22637288.516   118959940.887    22637293.387    92695972.699                  
  20627545.039   108398379.095    20627550.121    84466431.364    20627549.785  
  23280271.180   122338564.743    23280277.285    95328880.276    23280277.820  
  20457643.672   107505684.605    20457648.406    83770714.009    20457648.148  
  21336106.109   112122031.270    21336109.840    87367865.120                  
  24244578.078   127406063.377    24244582.246    99277538.769                  
  23248278.922   122170466.325    23248287.781    95197891.674    23248288.105  
  22986308.781   120793765.009    22986316.391    94125182.273    22986316.590  
 22 01 08 01 00 32.0000000  0 12G01G06G07G10G13G14G15G17G19G21G24G30
  22068578.719   115971149.845    22068587.336    90367204.470    22068586.586  
  25414790.195   133555630.135                   104069350.676    25414798.535  
  25077718.156   131784371.912    25077724.012   102689116.853    25077724.078  
  25804086.406   135601505.725    25804095.555   105663456.012    25804094.453  
  22637810.531   118962688.407    22637816.023    92698113.628                  
  20627793.859   108399689.047    20627799.551    84467452.104    20627799.348  
  23280633.023   122340468.717    23280639.523    95330363.892    23280639.688  
  20457531.539   107505093.839    20457536.438    83770253.670    20457536.426  
  21335588.016   112119310.509    21335591.793    87365745.045                  
  24245005.227   127408309.337    24245009.578    99279288.864                  
  23247672.805   122167280.538    23247680.992    95195409.246    23247681.180  
  22986954.773   120797161.108    22986962.816    94127828.588    22986962.949  
 22 01 08 01 00 33.0000000  0 12G01G06G07G10G13G14G15G17G19G21G24G30
  22068630.344   115971419.120    22068638.473    90367414.295    22068637.832  
  25414067.109   133551831.321                   104066390.568    25414076.090  
  25078437.430   131788154.118    25078444.082   102692064.024    25078444.113  
  25804268.719   135602458.897    25804276.820   105664198.750    25804275.996  
  22638333.688   118965436.323    22638339.078    92700254.858                  
  20628043.328   108400999.369    20628048.777    84468473.136    20628048.480  
  23280995.414   122342373.166    23281002.281    95331847.880    23281002.332  
  20457419.039   107504503.580    20457423.719    83769793.729    20457423.613  
  21335070.500   112116590.149    21335074.215    87363625.285                  
  24245432.586   127410555.814    24245436.984    99281039.381                  
  23247066.289   122164095.039    23247075.035    95192927.040    23247075.227  
  22987601.109   120800557.495    22987609.109    94130475.122    22987608.977  
 22 01 08 01 00 34.0000000  0 12G01G06G07G10G13G14G15G17G19G21G24G30
  22068681.914   115971689.169    22068690.137    90367624.724    22068689.438  
  25413344.578   133548032.463                   104063430.420    25413353.309  
  25079158.125   131791936.463    25079163.641   102695011.304    25079163.711  
  25804449.805   135603412.666    25804458.277   105664941.948    25804457.766  
  22638856.336   118968184.667    22638861.762    92702396.431                  
  20628292.586   108402310.070    20628297.953    84469494.462    20628297.719  
  23281358.086   122344278.185    23281364.340    95333332.312    23281364.477  
  20457307.141   107503913.890    20457311.738    83769334.237    20457311.527  
  21334552.664   112113870.271    21334556.773    87361505.899                  
  24245860.719   127412802.556    24245864.977    99282790.119                  
  23246460.539   122160909.844    23246469.035    95190445.074    23246469.180  
  22988247.469   120803954.158    22988255.336    94133121.867    22988255.594  
 22 01 08 01 00 35.0000000  0 12G01G06G07G10G13G14G15G17G19G21G24G30
  22068732.656   115971959.965    22068741.859    90367835.740    22068741.133  
  25412621.578   133544233.643                   104060470.307    25412630.324  
  25079877.898   131795718.838    25079883.621   102697958.605    25079883.664  
  25804631.867   135604366.993    25804639.152   105665685.587    25804638.848  
  22639379.508   118970933.453    22639384.707    92704538.346                  
  20628541.906   108403621.171    20628547.727    84470516.101    20628547.340  
  23281720.359   122346183.721    23281727.215    95334817.143    23281727.371  
  20457194.813   107503324.775    20457199.672    83768875.179    20457199.520  
  21334035.586   112111150.870    21334039.086    87359386.889                  
  24246288.156   127415049.855    24246292.125    99284541.269                  
  23245854.055   122157724.978    23245862.840    95187963.364    23245862.855  
  22988894.109   120807351.112    22988901.777    94135768.846    22988901.855  
 22 01 08 01 00 36.0000000  0 12G01G06G07G10G13G14G15G17G19G21G24G30
  22068784.250   115972231.534    22068793.176    90368047.348    22068792.258  
  25411897.820   133540434.608                   104057510.026    25411906.695  
  25080597.047   131799501.311    25080603.207   102700905.995    25080603.277  
  25804813.242   135605321.880    25804820.914   105666429.662    25804820.340  
  22639902.023   118973682.631    22639907.855    92706680.566                  
  20628791.625   108404932.650    20628797.543    84471538.030    20628797.277  
  23282082.914   122348089.753    23282089.805    95336302.362    23282089.926  
  20457082.891   107502736.186    20457087.676    83768416.544    20457087.828  
  21333517.805   112108431.890    21333521.754    87357268.204                  
  24246715.609   127417297.606    24246719.715    99286292.754                  
  23245248.094   122154540.406    23245257.020    95185481.878    23245257.234  
  22989540.563   120810748.309    22989548.574    94138416.011    22989548.195  
 22 01 08 01 00 37.0000000  0 12G01G06G07G10G13G14G15G17G19G21G24G30
  22068836.961   115972503.827    22068845.621    90368259.527    22068845.281  
  25411175.813   133536635.467                   104054549.668    25411183.449  
  25081316.633   131803283.842    25081323.188   102703853.418    25081322.934  
  25804995.039   135606277.302    25805002.789   105667174.145    25805001.809  
  22640426.172   118976432.225    22640431.242    92708823.107                  
  20629041.430   108406244.514    20629047.004    84472560.263    20629046.656  
  23282445.969   122349996.307    23282452.840    95337787.991    23282452.684  
  20456970.867   107502148.136    20456975.633    83767958.324    20456975.473  
  21333000.578   112105713.339    21333004.684    87355149.852                  
  24247143.477   127419545.689    24247147.969    99288044.513                  
  23244642.563   122151356.141    23244650.973    95183000.635    23244651.004  
  22990187.227   120814145.795    22990195.188    94141063.405    22990194.984  
 22 01 08 01 00 38.0000000  0 12G01G06G07G10G13G14G15G17G19G21G24G30
  22068888.586   115972776.917    22068897.008    90368472.323    22068896.520  
  25410452.695   133532836.288                   104051589.274    25410459.695  
  25082037.031   131807066.460    25082043.082   102706800.910    25082042.754  
  25805176.695   135607233.294    25805184.699   105667919.064    25805183.691  
  22640949.359   118979182.276    22640954.730    92710966.007                  
  20629291.164   108407556.776    20629296.852    84473582.804    20629296.727  
  23282808.797   122351903.417    23282815.426    95339274.052    23282815.500  
  20456859.164   107501560.657    20456863.844    83767500.547    20456863.969  
  21332483.578   112102995.291    21332486.887    87353031.892                  
  24247570.727   127421794.260    24247576.105    99289796.637                  
  23244036.742   122148172.195    23244045.047    95180519.635    23244045.043  
  22990833.648   120817543.555    22990841.648    94143711.014    22990841.656  
 22 01 08 01 00 39.0000000  0 12G01G06G07G10G13G14G15G17G19G21G24G30
  22068940.586   115973050.751    22068949.305    90368685.704    22068948.918  
  25409729.906   133529037.074                   104048628.846    25409736.926  
  25082757.227   131810849.119    25082763.121   102709748.436    25082762.656  
  25805358.883   135608189.838    25805366.363   105668664.423    25805365.273  
  22641472.492   118981932.729    22641478.305    92713109.214                  
  20629540.945   108408869.417    20629546.156    84474605.642    20629546.020  
  23283171.945   122353811.013    23283178.793    95340760.483    23283179.270  
  20456747.352   107500973.729    20456752.180    83767043.202    20456752.230  
  21331966.695   112100277.682    21331969.969    87350914.280                  
  24247999.055   127424043.301    24248003.762    99291549.109                  
  23243431.242   122144988.578    23243439.223    95178038.899    23243439.309  
  22991480.539   120820941.594    22991487.902    94146358.836    22991487.777  
 22 01 08 01 00 40.0000000  0 12G01G06G07G10G13G14G15G17G19G21G24G30
  22068992.500   115973325.334    22069001.637    90368899.663    22069001.277  
  25409005.852   133525237.658                   104045668.259    25409014.258  
  25083476.703   131814631.881    25083482.926   102712696.039    25083482.855  
  25805541.516   135609146.923    25805548.645   105669410.195    25805547.566  
  22641996.156   118984683.576    22642001.535    92715252.724                  
  20629790.680   108410182.441    20629796.578    84475628.779    20629796.328  
  23283535.000   122355719.132    23283541.637    95342247.324    23283541.609  
  20456636.148   107500387.332    20456640.484    83766586.267    20456640.461  
  21331449.289   112097560.509    21331453.246    87348797.012                  
  24248427.625   127426292.694    24248431.723    99293301.877                  
  23242825.352   122141805.232    23242833.066    95175558.371    23242833.223  
  22992127.125   120824339.905    22992134.645    94149006.871    22992134.949  
 22 01 08 01 00 41.0000000  0 12G01G06G07G10G13G14G15G17G19G21G24G30
  22069045.180   115973600.739    22069053.852    90369114.262    22069053.426  
  25408282.781   133521438.256                   104042707.688    25408291.398  
  25084196.516   131818414.770    25084202.938   102715643.745    25084202.566  
  25805723.320   135610104.613    25805731.207   105670156.435    25805729.695  
  22642520.500   118987434.923    22642525.273    92717396.628                  
  20630040.680   108411495.886    20630046.582    84476652.246    20630046.363  
  23283897.953   122357627.800    23283904.906    95343734.588    23283904.977  
  20456524.273   107499801.529    20456529.457    83766129.795    20456529.207  
  21330931.742   112094843.867    21330936.148    87346680.141                  
  24248855.578   127428542.580    24248860.078    99295055.038                  
  23242218.633   122138622.279    23242227.301    95173078.150    23242227.676  
  22992774.133   120827738.526    22992781.242    94151655.146    22992781.832  
 22 01 08 01 00 42.0000000  0 12G01G06G07G10G13G14G15G17G19G21G24G30
  22069097.445   115973876.849    22069106.520    90369329.416    22069105.992  
  25407560.805   133517638.720                   104039747.013    25407568.539  
  25084916.172   131822197.674    25084922.176   102718591.466    25084921.895  
  25805905.188   135611062.829    25805913.449   105670903.085    25805912.207  
  22643043.758   118990186.643    22643049.051    92719540.826                  
  20630290.609   108412809.688    20630296.203    84477675.983    20630296.230  
  23284261.328   122359536.979    23284268.129    95345222.259    23284268.238  
  20456412.766   107499216.216    20456417.652    83765673.706    20456417.410  
  21330415.234   112092127.619    21330418.945    87344563.584                  
  24249283.320   127430792.882    24249288.254    99296808.525                  
  23241613.695   122135439.571    23241621.633    95170598.111    23241621.973  
  22993420.281   120831137.382    22993428.094    94154303.600    22993428.449  
 22 01 08 01 00 43.0000000  0 12G01G06G07G10G13G14G15G17G19G21G24G30
  22069150.531   115974153.740    22069159.035    90369545.179    22069158.504  
  25406837.156   133513839.113                   104036786.287    25406845.000  
  25085635.906   131825980.630    25085642.695   102721539.223    25085642.141  
  25806088.570   135612021.568    25806095.840   105671650.144    25806094.379  
  22643567.242   118992938.752    22643572.629    92721685.335                  
  20630540.984   108414123.877    20630546.332    84478700.029    20630545.852  
  23284625.195   122361446.673    23284631.398    95346710.332    23284631.523  
  20456301.586   107498631.497    20456306.566    83765218.082    20456306.316  
  21329898.117   112089411.819    21329902.234    87342447.375                  
  24249712.211   127433043.595    24249716.914    99298562.351                  
  23241007.578   122132257.201    23241016.070    95168118.343    23241016.418  
  22994067.359   120834536.524    22994075.184    94156952.283    22994075.434  
 22 01 08 01 00 44.0000000  0 12G01G06G07G10G13G14G15G17G19G21G24G30
  22069203.031   115974431.377    22069211.828    90369761.520    22069211.133  
  25406113.367   133510039.391                   104033825.457    25406122.375  
  25086356.508   131829763.699    25086362.949   102724487.068    25086362.141  
  25806271.242   135612980.873    25806278.078   105672397.657    25806276.609  
  22644091.281   118995691.339    22644096.918    92723830.210                  
  20630791.117   108415438.458    20630796.379    84479724.380    20630796.191  
  23284988.078   122363356.852    23284995.227    95348198.780    23284995.043  
  20456190.625   107498047.313    20456195.699    83764762.875    20456195.555  
  21329381.859   112086696.485    21329385.828    87340331.536                  
  24250140.922   127435294.747    24250145.023    99300316.459                  
  23240402.063   122129075.145    23240410.730    95165638.822    23240411.008  
  22994714.133   120837935.975    22994721.660    94159601.207    22994722.250  
 22 01 08 01 00 45.0000000  0 12G01G06G07G10G13G14G15G17G19G21G24G30
  22069256.117   115974709.769    22069264.828    90369978.449    22069264.398  
  25405390.328   133506239.689                   104030864.648    25405398.797  
  25087075.383   131833546.792    25087082.367   102727434.936    25087081.688  
  25806453.438   135613940.754    25806460.527   105673145.617    25806459.086  
  22644614.938   118998444.332    22644620.172    92725975.394                  
  20631041.047   108416753.430    20631046.723    84480749.035    20631046.480  
  23285351.656   122365267.624    23285358.750    95349687.695    23285358.672  
  20456079.289   107497463.692    20456084.242    83764308.105    20456084.063  
  21328865.266   112083981.638    21328869.035    87338216.069                  
  24250569.109   127437546.331    24250573.793    99302070.965                  
  23239797.117   122125893.383    23239805.258    95163159.529    23239805.582  
  22995360.898   120841335.668    22995368.793    94162250.318    22995369.055  
 22 01 08 01 00 46.0000000  0 12G01G06G07G10G13G14G15G17G19G21G24G30
  22069309.969   115974988.943    22069318.238    90370195.988    22069317.648  
  25404667.398   133502439.750                   104027903.661    25404676.055  
  25087795.586   131837330.033    25087802.172   102730382.918    25087801.746  
  25806636.781   135614901.184    25806643.152   105673893.999    25806641.703  
  22645138.828   119001197.763    22645144.773    92728120.915                  
  20631291.594   108418068.788    20631296.867    84481773.988    20631296.766  
  23285716.016   122367178.862    23285722.723    95351176.980    23285722.367  
  20455968.289   107496880.620    20455973.270    83763853.761    20455973.309  
  21328348.672   112081267.216    21328352.520    87336100.930                  
  24250997.789   127439798.374    24251002.547    99303825.817                  
  23239191.547   122122711.952    23239199.809    95160680.490    23239200.340  
  22996008.484   120844735.651    22996015.973    94164899.657    22996016.047  
 22 01 08 01 00 47.0000000  0 12G01G06G07G10G13G14G15G17G19G21G24G30
  22069363.109   115975268.890    22069371.652    90370414.126    22069370.906  
  25403944.352   133498639.871                   104024942.713    25403952.309  
  25088515.344   131841113.294    25088521.848   102733330.918    25088521.508  
  25806818.891   135615862.186    25806825.859   105674642.824    25806824.430  
  22645662.914   119003951.625    22645668.637    92730266.781                  
  20631541.820   108419384.550    20631547.262    84482799.252    20631547.027  
  23286079.703   122369090.669    23286086.207    95352666.706    23286086.039  
  20455857.664   107496298.101    20455862.340    83763399.855    20455862.621  
  21327831.805   112078553.271    21327835.930    87333986.169                  
  24251426.492   127442050.882    24251430.906    99305581.007                  
  23238586.602   122119530.841    23238594.438    95158201.703    23238594.977  
  22996655.109   120848135.932    22996662.691    94167549.226    22996662.844  
 22 01 08 01 00 48.0000000  0 12G01G06G07G10G13G14G15G17G19G21G24G30
  22069416.172   115975549.583    22069424.848    90370632.843    22069424.039  
  25403221.336   133494839.812                   104021981.623    25403229.422  
  25089235.469   131844896.667    25089242.336   102736278.999    25089242.445  
  25807001.953   135616823.706    25807008.672   105675392.059    25807007.566  
  22646187.227   119006705.896    22646192.219    92732412.968                  
  20631792.094   108420700.675    20631797.793    84483824.810    20631797.590  
  23286443.383   122371002.965    23286450.453    95354156.816    23286450.188  
  20455746.688   107495716.140    20455751.695    83762946.377    20455751.441  
  21327315.836   112075839.779    21327319.887    87331871.768                  
  24251854.586   127444303.754    24251859.656    99307336.479                  
  23237981.461   122116350.062    23237989.152    95155723.177    23237989.535  
  22997302.258   120851536.480    22997309.996    94170199.001    22997310.238  
 22 01 08 01 00 49.0000000  0 12G01G06G07G10G13G14G15G17G19G21G24G30
  22069469.602   115975831.036    22069478.375    90370852.163    22069477.832  
  25402498.414   133491039.719                   104019020.514    25402505.801  
  25089956.070   131848680.081    25089961.637   102739227.107    25089961.457  
  25807185.109   135617785.811    25807191.758   105676141.758    25807190.867  
  22646711.328   119009460.592    22646716.664    92734559.487                  
  20632042.898   108422017.202    20632048.129    84484850.670    20632047.801  
  23286807.727   122372915.811    23286814.227    95355647.344    23286814.043  
  20455636.141   107495134.744    20455641.137    83762493.341    20455641.270  
  21326799.688   112073126.719    21326803.281    87329757.694                  
  24252283.625   127446557.089    24252288.746    99309092.323                  
  23237375.563   122113169.556    23237383.801    95153244.857    23237384.363  
  22997949.484   120854937.303    22997957.016    94172848.993    22997957.320  
 22 01 08 01 00 50.0000000  0 12G01G06G07G10G13G14G15G17G19G21G24G30
  22069523.016   115976113.279    22069532.031    90371072.092    22069531.273  
  25401774.797   133487239.561                   104016059.361    25401783.180  
  25090675.406   131852463.601    25090681.648   102742175.302    25090681.293  
  25807369.070   135618748.503    25807375.180   105676891.912    25807374.395  
  22647235.719   119012215.723    22647240.789    92736706.341                  
  20632293.383   108423334.116    20632299.000    84485876.843    20632298.656  
  23287171.422   122374829.181    23287177.957    95357138.284    23287177.676  
  20455525.711   107494553.884    20455530.711    83762040.724    20455530.789  
  21326283.648   112070414.142    21326286.824    87327643.991                  
  24252712.883   127448810.853    24252717.809    99310848.496                  
  23236770.266   122109989.374    23236778.691    95150766.787    23236779.391  
  22998597.281   120858338.399    22998604.488    94175499.194    22998604.539  
 22 01 08 01 00 51.0000000  0 12G01G06G07G10G13G14G15G17G19G21G24G30
  22069577.102   115976396.267    22069586.168    90371292.602    22069585.227  
  25401052.031   133483439.237                   104013098.076    25401060.512  
  25091395.555   131856247.187    25091401.441   102745123.552    25091400.941  
  25807551.203   135619711.725    25807558.273   105677642.469    25807557.422  
  22647759.758   119014971.274    22647765.270    92738853.524                  
  20632544.219   108424651.439    20632549.531    84486903.325    20632549.207  
  23287536.281   122376743.087    23287542.469    95358629.637    23287542.148  
  20455415.305   107493973.582    20455420.090    83761588.542    20455420.172  
  21325767.555   112067702.020    21325770.977    87325530.649                  
  24253141.836   127451065.085    24253146.242    99312605.029                  
  23236165.148   122106809.541    23236173.863    95148288.992    23236174.273  
  22999244.266   120861739.795    22999251.938    94178149.632    22999251.957  
 22 01 08 01 00 52.0000000  0 12G01G06G07G10G13G14G15G17G19G21G24G30
  22069630.852   115976679.999    22069640.066    90371513.695    22069639.340  
  25400328.422   133479638.834                   104010136.730    25400336.820  
  25092115.648   131860030.800    25092121.555   102748071.825    25092121.527  
  25807734.148   135620675.468    25807741.672   105678393.429    25807740.871  
  22648283.898   119017727.231    22648289.715    92741001.028                  
  20632794.805   108425969.120    20632800.336    84487930.089    20632799.875  
  23287900.469   122378657.442    23287906.648    95360121.337    23287906.688  
  20455305.141   107493393.802    20455310.227    83761136.768    20455310.109  
  21325251.477   112064990.346    21325254.992    87323417.664                  
  24253570.898   127453319.682    24253575.266    99314361.878                  
  23235561.148   122103629.970    23235568.945    95145811.408    23235569.293  
  22999891.258   120865141.445    22999898.918    94180800.264    22999898.828  
 22 01 08 01 00 53.0000000  0 12G01G06G07G10G13G14G15G17G19G21G24G30
  22069684.563   115976964.513    22069693.895    90371735.393    22069693.266  
  25399605.984   133475838.451                   104007175.388    25399613.230  
  25092836.008   131863814.566    25092841.781   102751020.216    25092841.828  
  25807918.250   135621639.775    25807925.527   105679144.826    25807924.395  
  22648809.180   119020483.616    22648814.406    92743148.863                  
  20633045.477   108427287.196    20633051.152    84488957.158    20633050.992  
  23288264.938   122380572.375    23288271.074    95361613.492    23288271.051  
  20455194.727   107492814.611    20455199.875    83760685.450    20455199.695  
  21324735.273   112062279.125    21324739.004    87321305.022                  
  24253999.578   127455574.740    24254004.504    99316119.072                  
  23234955.055   122100450.748    23234963.758    95143334.095    23234963.859  
  23000539.156   120868543.366    23000546.574    94183451.114    23000546.430  
 22 01 08 01 00 54.0000000  0 12G01G06G07G10G13G14G15G17G19G21G24G30
  22069739.641   115977249.825    22069748.559    90371957.716    22069747.879  
  25398882.586   133472037.906                   104004213.933    25398890.488  
  25093555.734   131867598.351    25093561.813   102753968.612    25093561.816  
  25808102.289   135622604.685    25808109.355   105679896.707    25808107.871  
  22649333.313   119023240.451    22649338.980    92745297.038                  
  20633296.922   108428605.669    20633302.359    84489984.544    20633302.004  
  23288629.234   122382487.827    23288635.617    95363106.051    23288635.645  
  20455084.797   107492235.958    20455089.602    83760234.550    20455089.699  
  21324219.922   112059568.389    21324223.199    87319192.761                  
  24254428.977   127457830.258    24254433.625    99317876.615                  
  23234351.172   122097271.816    23234358.629    95140857.011    23234358.430  
  23001186.156   120871945.596    23001193.895    94186102.203    23001193.699  
 22 01 08 01 00 55.0000000  0 12G01G06G07G10G13G14G15G17G19G21G24G30
  22069794.531   115977535.843    22069802.699    90372180.589    22069802.023  
  25398158.617   133468237.267                   104001252.399    25398167.109  
  25094276.102   131871382.260    25094281.660   102756917.114    25094281.625  
  25808285.664   135623570.138    25808293.051   105680649.005    25808291.465  
  22649857.914   119025997.708    22649863.734    92747445.544                  
  20633547.672   108429924.542    20633553.273    84491012.231    20633552.914  
  23288994.031   122384403.788    23289000.125    95364599.007    23289000.352  
  20454974.719   107491657.862    20454979.254    83759784.088    20454979.316  
